location_id,stillworkers,total_workers,municipality_name,municipality_slug,municipality_lat,municipality_lon,afiliados_ss,autonomos,empresas,personas_paradas,poblacion,renta_bruta_media,renta_disponible_media,viviendas_familiares,viviendas_principales,movingworkers,pob_psactiva,tasa_movilidad
19024,NA,1567,NA,NA,NA,NA,NA,NA,NA,NA,NA,NA,NA,NA,NA,NA,NA,NA
19046,NA,4558,NA,NA,NA,NA,NA,NA,NA,NA,NA,NA,NA,NA,NA,NA,NA,NA
19058,NA,830,NA,NA,NA,NA,NA,NA,NA,NA,NA,NA,NA,NA,NA,NA,NA,NA
19071,NA,1770,NA,NA,NA,NA,NA,NA,NA,NA,NA,NA,NA,NA,NA,NA,NA,NA
19105,NA,357,NA,NA,NA,NA,NA,NA,NA,NA,NA,NA,NA,NA,NA,NA,NA,NA
19117,NA,130,NA,NA,NA,NA,NA,NA,NA,NA,NA,NA,NA,NA,NA,NA,NA,NA
19126,NA,350,NA,NA,NA,NA,NA,NA,NA,NA,NA,NA,NA,NA,NA,NA,NA,NA
19130,NA,6183,NA,NA,NA,NA,NA,NA,NA,NA,NA,NA,NA,NA,NA,NA,NA,NA
19160,NA,162,NA,NA,NA,NA,NA,NA,NA,NA,NA,NA,NA,NA,NA,NA,NA,NA
19171,NA,364,NA,NA,NA,NA,NA,NA,NA,NA,NA,NA,NA,NA,NA,NA,NA,NA
19220,NA,438,NA,NA,NA,NA,NA,NA,NA,NA,NA,NA,NA,NA,NA,NA,NA,NA
19225,NA,156,NA,NA,NA,NA,NA,NA,NA,NA,NA,NA,NA,NA,NA,NA,NA,NA
19230,NA,81,NA,NA,NA,NA,NA,NA,NA,NA,NA,NA,NA,NA,NA,NA,NA,NA
19280,NA,738,NA,NA,NA,NA,NA,NA,NA,NA,NA,NA,NA,NA,NA,NA,NA,NA
19286,NA,51,NA,NA,NA,NA,NA,NA,NA,NA,NA,NA,NA,NA,NA,NA,NA,NA
19297,NA,2,NA,NA,NA,NA,NA,NA,NA,NA,NA,NA,NA,NA,NA,NA,NA,NA
19300,NA,114,NA,NA,NA,NA,NA,NA,NA,NA,NA,NA,NA,NA,NA,NA,NA,NA
19319,NA,991,NA,NA,NA,NA,NA,NA,NA,NA,NA,NA,NA,NA,NA,NA,NA,NA
19326,NA,235,NA,NA,NA,NA,NA,NA,NA,NA,NA,NA,NA,NA,NA,NA,NA,NA
19331,NA,198,NA,NA,NA,NA,NA,NA,NA,NA,NA,NA,NA,NA,NA,NA,NA,NA
28001,5,15,"Acebeda, La",acebeda-la,40.3405608,-3.7170023,14,6,6,5,66,NA,NA,147,34,10,20,0.6666666666666666
28002,417,1686,Ajalvir,ajalvir,40.5302674,-3.4839237,3995,278,597,192,4440,26525,21494,1564,1533,1269,1878,0.7526690391459074
28003,10,72,Alameda del Valle,alameda-del-valle,40.9187866,-3.8439011,52,16,18,9,208,NA,NA,393,113,62,81,0.8611111111111112
28004,453,2440,"Álamo, El",alamo-el,40.2312091,-3.9942211,1694,639,615,685,9017,21910,18354,4087,2916,1987,3125,0.8143442622950819
28005,25793,63876,Alcalá de Henares,alcala-de-henares,40.4819791,-3.3635421,56240,8070,8727,13013,195907,25958,21234,78917,71864,38083,76889,0.5962020164067882
28006,13949,42012,Alcobendas,alcobendas,40.5372512,-3.6372245,109424,6769,9710,5027,113340,47052,35002,41180,39101,28063,47039,0.6679758164334
28007,12621,58545,Alcorcón,alcorcon,40.3468454,-3.8278443,45991,7834,8744,9873,167354,25700,21042,70857,66066,45924,68418,0.7844222393031002
28008,124,658,Aldea del Fresno,aldea-del-fresno,40.3208765,-4.1987434,448,132,134,255,2584,20626,17421,1989,975,534,913,0.8115501519756839
28009,1260,7220,Algete,algete,40.5964617,-3.5016452,8069,1468,1761,994,20311,36747,28439,7951,6570,5960,8214,0.8254847645429363
28010,578,4859,Alpedrete,alpedrete,40.6621635,-4.031169,2775,1012,1095,668,14417,31015,24632,7249,4910,4281,5527,0.8810454826095905
28011,22,151,Ambite,ambite,40.3283739,-3.1823592,72,32,29,70,595,NA,NA,736,261,129,221,0.8543046357615894
28012,31,365,Anchuelo,anchuelo,40.4647291,-3.2690503,163,88,63,68,1215,22248,18507,603,461,334,433,0.915068493150685
28013,7323,15597,Aranjuez,aranjuez,40.0305018,-3.6040527,13861,2682,2730,4276,57932,25661,21032,24792,20040,8274,19873,0.530486632044624
28014,7385,18488,Arganda del Rey,arganda-del-rey,40.3064463,-3.4479063,22063,3072,3670,4392,54256,22952,19057,20458,18925,11103,22880,0.6005517092167892
28015,1160,10315,Arroyomolinos,arroyomolinos-madrid,40.2783308,-3.9215541,8014,2255,1846,1419,28177,28910,23223,10043,7813,9155,11734,0.887542413960252
28016,8,34,"Atazar, El",atazar-el,40.3988486,-3.6861415,12,0,0,7,95,NA,NA,70,41,26,41,0.7647058823529411
28017,27,455,Batres,batres,40.2098126,-3.9199616,217,141,124,105,1582,25892,21040,993,526,428,560,0.9406593406593406
28018,282,1601,Becerril de la Sierra,becerril-de-la-sierra,40.7102483,-3.9954969,996,472,459,326,5439,30594,24283,4128,1977,1319,1927,0.8238600874453467
28019,75,523,Belmonte de Tajo,belmonte-de-tajo,40.1344349,-3.3376324,219,112,65,87,1605,18807,16082,967,633,448,610,0.8565965583173997
28020,19,51,Berzosa del Lozoya,berzosa-del-lozoya,40.9755539,-3.5236688,53,7,12,15,198,NA,NA,171,85,32,66,0.6274509803921569
28021,41,180,"Berrueco, El",berrueco-el,40.8893089,-3.5629234,131,40,38,46,752,NA,NA,831,255,139,226,0.7722222222222223
28022,2588,16023,Boadilla del Monte,boadilla-del-monte,40.4122794,-3.8887699,29031,4527,4875,1466,49762,49598,36749,16380,14504,13435,17489,0.8384821818635712
28023,312,2405,"Boalo, El",boalo-el,40.3659918,-3.6161069,1491,604,504,411,7225,30023,23854,4283,2678,2093,2816,0.8702702702702703
28024,9,67,Braojos,braojos,41.0402585,-3.6429982,45,24,18,12,201,NA,NA,238,86,58,79,0.8656716417910447
28025,39,145,Brea de Tajo,brea-de-tajo,40.2295666,-3.1096078,473,33,15,60,560,NA,NA,474,199,106,205,0.7310344827586207
28026,517,3517,Brunete,brunete,40.4043103,-3.9993244,2519,788,744,510,10374,29486,23644,4086,3402,3e3,4027,0.8529997156667615
28027,205,547,Buitrago del Lozoya,buitrago-del-lozoya,40.989823,-3.6383114,472,147,137,93,1861,23268,19393,1233,740,342,640,0.6252285191956124
28028,147,752,Bustarviejo,bustarviejo,40.857568,-3.7092432,451,186,176,180,2370,25106,20344,2409,952,605,932,0.8045212765957447
28029,40,235,Cabanillas de la Sierra,cabanillas-de-la-sierra,40.8187877,-3.6246658,120,45,52,33,719,NA,NA,628,310,195,268,0.8297872340425532
28030,215,779,"Cabrera, La",cabrera-la,40.47253,-3.72044,506,194,188,146,2560,23785,19576,1722,915,564,925,0.72400513478819
28031,223,649,Cadalso de los Vidrios,cadalso-de-los-vidrios,40.3015944,-4.4426499,495,171,188,358,2788,17971,15339,2862,1123,426,1007,0.6563944530046225
28032,297,2174,Camarma de Esteruelas,camarma-de-esteruelas,40.5474107,-3.3766851,2264,505,550,454,7050,25528,20921,2903,2424,1877,2628,0.8633854645814167
28033,367,1927,Campo Real,campo-real,40.3390034,-3.3833163,1544,472,460,457,5888,23221,19114,2844,2087,1560,2384,0.809548521017125
28034,27,120,Canencia,canencia,40.9070688,-3.7397005,100,37,33,30,451,NA,NA,692,217,93,150,0.775
28035,61,547,Carabaña,carabana,40.2567009,-3.2376227,265,127,114,152,1948,20306,17245,1649,789,486,699,0.8884826325411335
28036,143,1165,Casarrubuelos,casarrubuelos,40.1709362,-3.8318182,802,240,244,236,3589,22596,18900,1240,1076,1022,1401,0.8772532188841202
28037,113,418,Cenicientos,cenicientos,40.2624728,-4.4658148,231,98,93,225,1986,15844,13896,1986,824,305,643,0.7296650717703349
28038,642,2195,Cercedilla,cercedilla,40.7406497,-4.0568488,1712,500,484,376,6751,26191,21224,5038,2713,1553,2571,0.7075170842824602
28039,7,42,Cervera de Buitrago,cervera-de-buitrago,40.9218597,-3.5300444,30,6,8,8,157,NA,NA,215,81,35,50,0.8333333333333334
28040,1936,7620,Ciempozuelos,ciempozuelos,40.157955,-3.6192473,6331,1084,1077,1566,23773,22005,18394,9767,8043,5684,9186,0.7459317585301837
28041,339,2632,Cobeña,cobena,40.5683393,-3.5040753,1542,495,434,273,7009,38100,29465,2764,2217,2293,2905,0.8712006079027356
28042,71,495,Colmenar del Arroyo,colmenar-del-arroyo,40.4176079,-4.1987434,448,96,103,125,1632,24248,19953,1104,588,424,620,0.8565656565656565
28043,437,2061,Colmenar de Oreja,colmenar-de-oreja,40.1098823,-3.39055,1313,595,507,649,7946,18770,16203,4925,2979,1624,2710,0.7879670063076176
28044,317,2956,Colmenarejo,colmenarejo,40.5609399,-4.0167486,1506,554,546,514,8945,29084,23372,3749,3054,2639,3470,0.8927604871447903
28045,5057,17370,Colmenar Viejo,colmenar-viejo,40.6626481,-3.7710457,11782,2708,2747,2692,48020,30388,24195,18927,15873,12313,20062,0.7088658606793322
28046,302,2049,Collado Mediano,collado-mediano,40.6951303,-4.0299546,1235,556,522,427,6583,31384,24728,4255,2391,1747,2476,0.8526110297706199
28047,5117,22470,Collado Villalba,collado-villalba,40.6308775,-4.0055605,13462,3197,3693,4177,61597,26194,21288,27741,22055,17353,26647,0.7722741433021807
28048,12,222,Corpa,corpa,40.4254386,-3.2640205,62,29,24,46,672,NA,NA,407,258,210,268,0.9459459459459459
28049,6048,33004,Coslada,coslada,40.4260459,-3.5651646,27039,4232,4685,4798,84533,24653,20269,31567,30490,26956,37802,0.8167494849109199
28050,140,1780,Cubas de la Sagra,cubas-de-la-sagra,40.191512,-3.8372233,1249,507,368,276,5971,25183,20708,2220,1713,1640,2056,0.9213483146067416
28051,93,583,Chapinería,chapineria,40.3789786,-4.2115526,406,146,143,173,2214,24275,19912,1397,782,490,756,0.8404802744425386
28052,495,1416,Chinchón,chinchon,40.1402665,-3.4221687,1388,407,367,364,5294,20156,16866,3045,1969,921,1780,0.6504237288135594
28053,524,3674,Daganzo de Arriba,daganzo-de-arriba,40.5450298,-3.4574079,3180,623,691,491,9981,29772,23746,3691,3215,3150,4165,0.8573761567773543
28054,936,4997,"Escorial, El",escorial-el,40.4241189,-3.7037734,2575,1116,1018,776,15364,29735,23728,9836,5593,4061,5773,0.8126876125675405
28055,104,346,Estremera,estremera,40.1836518,-3.107101,815,94,67,85,1319,16589,14447,957,492,242,431,0.6994219653179191
28056,49,396,Fresnedillas de la Oliva,fresnedillas-de-la-oliva,40.4864017,-4.1722255,201,93,79,136,1547,21604,18010,851,603,347,532,0.8762626262626263
28057,81,693,Fresno de Torote,fresno-de-torote,40.5923751,-3.4123004,328,147,105,141,2044,24434,20145,1129,808,612,834,0.8831168831168831
28058,13848,72826,Fuenlabrada,fuenlabrada,40.2902056,-3.8035477,45291,9708,10248,13949,194171,21340,17878,70835,66655,58978,86775,0.8098481311619476
28059,370,2157,Fuente el Saz de Jarama,fuente-el-saz-de-jarama,40.6352139,-3.5107894,1886,475,554,392,6403,26561,21489,2858,2198,1787,2549,0.828465461288827
28060,90,523,Fuentidueña de Tajo,fuentiduena-de-tajo,40.1188967,-3.1616515,305,105,97,193,1936,18386,15807,1419,766,433,716,0.8279158699808795
28061,1440,10972,Galapagar,galapagar,40.5768377,-4.0058027,5635,2428,2326,1784,32404,32007,25221,15187,11187,9532,12756,0.8687568355814801
28062,13,102,Garganta de los Montes,garganta-de-los-montes,40.9220447,-3.6857781,75,37,30,19,351,NA,NA,658,179,89,121,0.8725490196078431
28063,19,86,Gargantilla del Lozoya y Pinilla de Buitrago,gargantilla-del-lozoya-y-pinilla-de-buitrago,40.9648298,-3.7079745,112,28,27,13,325,NA,NA,936,183,67,99,0.7790697674418605
28064,6,59,Gascones,gascones,41.0182682,-3.6417313,53,19,18,11,171,NA,NA,171,72,53,70,0.8983050847457628
28065,17366,61888,Getafe,getafe,40.3082504,-3.7323934,67557,8346,8169,10704,176659,25826,21126,68984,62509,44522,72592,0.7193963288521199
28066,527,2860,Griñón,grinon,40.2146067,-3.856943,5648,1067,1016,455,9938,28365,22799,3879,3185,2333,3315,0.8157342657342658
28067,296,1826,Guadalix de la Sierra,guadalix-de-la-sierra,40.7860007,-3.6952896,813,435,337,458,5982,25799,20865,3533,2101,1530,2284,0.8378970427163198
28068,1157,5153,Guadarrama,guadarrama,40.6731798,-4.0875528,3511,1011,1032,768,15488,27314,22118,9539,5967,3996,5921,0.7754705996506889
28069,4,19,"Hiruela, La",hiruela-la,40.4722377,-3.7188647,15,0,0,1,54,NA,NA,141,36,15,20,0.7894736842105263
28070,5,43,Horcajo de la Sierra-Aoslos,horcajo-de-la-sierra-aoslos,41.0551319,-3.5967937,43,11,10,5,143,NA,NA,385,90,38,48,0.8837209302325582
28071,5,23,Horcajuelo de la Sierra,horcajuelo-de-la-sierra,41.0602602,-3.5461651,31,7,5,1,86,NA,NA,165,43,18,24,0.782608695652174
28072,434,2456,Hoyo de Manzanares,hoyo-de-manzanares,40.6226405,-3.9082735,2153,618,561,344,7965,35480,27707,5003,2695,2022,2800,0.8232899022801303
28073,1018,6875,Humanes de Madrid,humanes-de-madrid,40.2639589,-3.8171953,9896,1155,2048,1464,19563,21031,17753,7075,6430,5857,8339,0.8519272727272728
28074,13874,63720,Leganés,leganes,40.3319506,-3.7686545,51932,8486,9200,11934,187173,23661,19625,75514,70949,49846,75654,0.7822661644695543
28075,507,3025,Loeches,loeches,40.3834821,-3.4170301,3922,601,668,564,8388,23749,19638,3563,2827,2518,3589,0.832396694214876
28076,44,168,Lozoya,lozoya,40.9553281,-3.7969976,126,43,45,28,576,NA,NA,787,289,124,196,0.7380952380952381
28078,3,13,Madarcos,madarcos,41.0476701,-3.5820602,16,8,0,1,47,NA,NA,78,26,10,14,0.7692307692307693
28079,917113,1128559,Madrid,madrid,40.4167754,-3.7037902,1913935,185530,287918,174212,3165541,34837,27129,1530957,1320531,211446,1302771,0.1873592785135735
28080,5236,23629,Majadahonda,majadahonda,40.4737586,-3.8683123,30841,5151,6292,2304,70755,48493,36173,24645,23069,18393,25933,0.778407888611452
28082,388,2731,Manzanares el Real,manzanares-el-real,40.7262858,-3.8646893,1261,606,491,500,8387,29740,23659,5533,3007,2343,3231,0.8579274990845844
28083,762,4438,Meco,meco,40.5539468,-3.3263003,5385,725,778,855,13426,26285,21345,5222,4370,3676,5293,0.8283010365029293
28084,1471,8259,Mejorada del Campo,mejorada-del-campo,40.396654,-3.4877129,5937,1389,1504,1592,22900,21957,18388,8502,7594,6788,9851,0.8218912701295557
28085,378,1737,Miraflores de la Sierra,miraflores-de-la-sierra,40.8140407,-3.7663657,1048,441,427,419,5754,27366,21942,4816,2280,1359,2156,0.7823834196891192
28086,431,2845,"Molar, El",molar-el-madrid,40.452722,-3.70687,1298,519,485,514,8263,23736,19491,3491,2991,2414,3359,0.8485061511423551
28087,229,1343,"Molinos, Los",molinos-los,40.4579662,-3.7032858,727,333,311,262,4373,30039,23827,2871,1642,1114,1605,0.8294862248696947
28088,40,76,Montejo de la Sierra,montejo-de-la-sierra,41.0595052,-3.5297283,154,23,29,11,359,NA,NA,411,126,36,87,0.47368421052631576
28089,255,1580,Moraleja de Enmedio,moraleja-de-enmedio,40.2596189,-3.8606776,2138,514,533,288,4984,23587,19576,1779,1623,1325,1868,0.8386075949367089
28090,703,4249,Moralzarzal,moralzarzal,40.6763507,-3.9704867,2303,783,780,582,12372,33015,26097,6045,4263,3546,4831,0.8345493057189927
28091,500,2195,Morata de Tajuña,morata-de-tajuna,40.2299024,-3.4372149,1123,459,327,603,7548,20730,17475,3394,2673,1695,2798,0.7722095671981777
28092,13572,72692,Móstoles,mostoles,40.3232129,-3.8676291,40674,9522,9280,13768,205614,22808,18976,79592,74951,59120,86460,0.8132944478071865
28093,238,941,Navacerrada,navacerrada,40.7285661,-4.0146372,650,238,225,112,2885,31882,25085,2297,1105,703,1053,0.7470775770456961
28094,53,420,Navalafuente,navalafuente,40.8233408,-3.6748439,211,84,59,119,1266,24013,19707,1184,443,367,539,0.8738095238095238
28095,86,735,Navalagamella,navalagamella,40.4685147,-4.1222221,289,141,112,187,2423,22183,18484,1403,850,649,922,0.8829931972789116
28096,1868,8816,Navalcarnero,navalcarnero,40.285599,-4.0166526,11159,1704,1567,1950,26954,24552,20245,12065,8846,6948,10766,0.7881125226860254
28097,3,33,Navarredonda y San Mamés,navarredonda-y-san-mames,40.9906493,-3.7260317,20,13,12,4,132,NA,NA,323,81,30,37,0.9090909090909091
28099,167,684,Navas del Rey,navas-del-rey,40.3877545,-4.249999,507,157,168,266,2659,20851,17672,1736,971,517,950,0.7558479532163743
28100,208,1690,Nuevo Baztán,nuevo-baztan,40.3664953,-3.2435923,1181,549,474,386,6018,28980,23189,3941,2067,1482,2076,0.8769230769230769
28101,20,97,Olmeda de las Fuentes,olmeda-de-las-fuentes,40.3693459,-3.2212883,115,32,25,16,326,NA,NA,284,146,77,113,0.7938144329896907
28102,66,326,Orusco de Tajuña,orusco-de-tajuna,40.2836404,-3.2093551,218,47,52,103,1225,20102,16999,994,488,260,429,0.7975460122699386
28104,1035,8846,Paracuellos de Jarama,paracuellos-de-jarama,40.5056034,-3.5302108,5908,1475,1537,822,23104,37245,28974,7244,6976,7811,9668,0.8829979651820031
28106,6034,42971,Parla,parla,40.232367000000004,-3.768906,16386,5352,4241,10256,124661,21033,17761,47093,43712,36937,53227,0.8595797165530241
28107,31,157,Patones,patones,40.8544733,-3.4839237,108,27,28,20,537,NA,NA,472,194,126,177,0.802547770700637
28108,231,1924,Pedrezuela,pedrezuela,40.744654,-3.6027866,953,358,347,331,5456,28367,22786,3039,1959,1693,2255,0.8799376299376299
28109,148,590,Pelayos de la Presa,pelayos-de-la-presa,40.3588183,-4.3344973,439,142,176,265,2471,20984,17622,2975,955,442,855,0.7491525423728813
28110,114,750,Perales de Tajuña,perales-de-tajuna,40.2324096,-3.3514863,464,200,166,281,2799,19920,16775,1579,1007,636,1031,0.848
28111,37,233,Pezuela de las Torres,pezuela-de-las-torres,40.418973,-3.1760832,131,49,46,40,793,NA,NA,752,295,196,273,0.8412017167381974
28112,8,49,Pinilla del Valle,pinilla-del-valle,40.9265024,-3.8203738,21,8,6,11,192,NA,NA,287,97,41,60,0.8367346938775511
28113,4241,18023,Pinto,pinto,40.2375052,-3.6967718,17762,2569,2895,3237,49522,25317,20744,19695,17401,13782,21260,0.7646895633357377
28114,2,43,Piñuécar-Gandullas,pinuecar-gandullas,41.0288141,-3.596457,31,14,17,9,185,NA,NA,236,77,41,52,0.9534883720930233
28115,6278,26615,Pozuelo de Alarcón,pozuelo-de-alarcon,40.4440049,-3.8056526,76433,7782,10154,2405,84989,61643,44415,29840,26769,20337,29020,0.7641179785835055
28116,16,379,Pozuelo del Rey,pozuelo-del-rey,40.3665441,-3.3206352,138,77,75,70,1073,22484,18762,579,408,363,449,0.9577836411609498
28117,6,39,Prádena del Rincón,pradena-del-rincon,41.0440748,-3.5404748,33,14,10,2,134,NA,NA,202,51,33,41,0.8461538461538461
28118,3,22,Puebla de la Sierra,puebla-de-la-sierra,41.0117046,-3.4451018,26,0,6,NA,66,NA,NA,171,52,19,NA,0.8636363636363636
28119,98,1060,Quijorna,quijorna,40.429024,-4.0567709,418,233,213,198,3239,26484,21691,1603,1172,962,1258,0.9075471698113208
28120,190,450,Rascafría,rascafria,40.9049836,-3.8795305,407,167,134,83,1692,24390,20573,1758,772,260,533,0.5777777777777777
28121,10,90,Redueña,reduena,40.8163179,-3.6032704,73,19,14,10,261,NA,NA,252,133,80,100,0.8888888888888888
28122,23,188,Ribatejada,ribatejada,40.6674275,-3.3930713,82,34,36,65,689,NA,NA,626,279,165,253,0.8776595744680851
28123,5658,31215,Rivas-Vaciamadrid,rivas-vaciamadrid,40.3519065,-3.5357334,22820,5747,5127,4176,82715,30744,24449,25374,24663,25557,35391,0.8187409899086977
28124,2,29,Robledillo de la Jara,robledillo-de-la-jara,40.9525839,-3.525304,7,0,0,3,99,NA,NA,191,46,27,32,0.9310344827586207
28125,264,1067,Robledo de Chavela,robledo-de-chavela,40.505008,-4.2345159,872,239,251,265,4001,25029,20517,3423,1459,803,1332,0.7525773195876289
28126,2,18,Robregordo,robregordo,41.10675,-3.5934508,7,0,0,1,45,NA,NA,159,40,16,19,0.8888888888888888
28127,7819,33117,"Rozas de Madrid, Las",rozas-de-madrid-las,40.3092383,-4.4922092,64154,7205,10409,3125,94471,46843,35058,35388,29873,25298,36242,0.7638976960473473
28128,39,129,Rozas de Puerto Real,rozas-de-puerto-real,40.3092383,-4.4922092,169,19,25,32,533,NA,NA,694,218,90,161,0.6976744186046512
28129,860,4499,San Agustín del Guadalix,san-agustin-del-guadalix,40.6809652,-3.6154482,3950,986,938,592,12862,39913,30395,4657,4186,3639,5091,0.808846410313403
28130,1808,16171,San Fernando de Henares,san-fernando-de-henares,40.4256038,-3.5318722,21403,2226,2589,2486,40095,23936,19724,15304,14596,14363,18657,0.8881949168264177
28131,1535,5571,San Lorenzo de El Escorial,san-lorenzo-de-el-escorial,40.5932386,-4.1475748,4463,1202,1278,890,18038,30038,23987,10030,7110,4036,6461,0.7244659845629151
28132,1137,6176,San Martín de la Vega,san-martin-de-la-vega,40.2103049,-3.5787384,4494,1113,1116,1397,18734,22123,18511,7553,6736,5039,7573,0.8159002590673575
28133,796,2002,San Martín de Valdeiglesias,san-martin-de-valdeiglesias,40.3635617,-4.4035034,1579,484,501,730,8344,20851,17501,5865,2908,1206,2732,0.6023976023976024
28134,7702,33926,San Sebastián de los Reyes,san-sebastian-de-los-reyes,40.5589672,-3.6261976,42115,5033,6545,4192,86206,31520,24786,32465,29710,26224,38118,0.7729764782172964
28135,54,277,Santa María de la Alameda,santa-maria-de-la-alameda,40.5963264,-4.2596149,212,116,89,102,1177,20612,17272,2488,517,223,379,0.8050541516245487
28136,22,223,Santorcaz,santorcaz,40.4720739,-3.2338527,78,44,41,49,851,NA,NA,576,322,201,272,0.9013452914798207
28137,77,741,"Santos de la Humosa, Los",santos-de-la-humosa-los,40.47294,-3.64942,281,141,115,162,2435,24756,20416,1185,854,664,903,0.8960863697705803
28138,2,30,"Serna del Monte, La",serna-del-monte-la,40.4724364,-3.7196632,27,10,12,5,77,NA,NA,113,41,28,35,0.9333333333333333
28140,100,1233,Serranillos del Valle,serranillos-del-valle,40.2056183,-3.8833494,1066,413,335,258,3990,25003,20571,1566,1163,1133,1491,0.9188969991889699
28141,380,2966,Sevilla la Nueva,sevilla-la-nueva,40.3473337,-4.0274014,1729,741,643,529,8905,26190,21296,4022,3033,2586,3495,0.8718813216453135
28143,4,28,Somosierra,somosierra,41.1330027,-3.5824103,25,8,5,5,77,NA,NA,98,43,24,33,0.8571428571428571
28144,582,2667,Soto del Real,soto-del-real,40.7528628,-3.7816093,2260,670,567,367,8483,33973,26539,5214,2316,2085,3034,0.78177727784027
28145,196,1221,Talamanca de Jarama,talamanca-de-jarama,40.7451696,-3.5111468,588,223,203,186,3451,24014,19682,1949,1152,1025,1407,0.8394758394758395
28146,202,835,Tielmes,tielmes,40.2475704,-3.3124535,579,140,112,216,2620,18939,16127,1466,953,633,1051,0.7580838323353294
28147,45,367,Titulcia,titulcia,40.1377552,-3.5698814,181,88,64,93,1258,21341,18005,679,467,322,460,0.8773841961852861
28148,11800,46657,Torrejón de Ardoz,torrejon-de-ardoz,40.4567552,-3.4754967,31791,6075,5729,8886,126981,23510,19473,49209,44581,34857,55543,0.7470904687399533
28149,424,2671,Torrejón de la Calzada,torrejon-de-la-calzada,40.1969481,-3.7981283,4979,742,662,455,8171,28127,22725,2786,2501,2247,3126,0.8412579558217896
28150,132,1280,Torrejón de Velasco,torrejon-de-velasco,40.1874784,-3.7752572,868,308,291,260,4243,23646,19642,1769,1417,1148,1540,0.896875
28151,291,1536,Torrelaguna,torrelaguna,40.8275222,-3.5395265,635,239,231,268,4697,22666,18914,2619,1842,1245,1804,0.810546875
28152,1045,7109,Torrelodones,torrelodones,40.5766078,-3.9293646,6427,1956,2180,730,23123,45691,34248,8253,6962,6064,7839,0.8530032353354903
28153,67,268,Torremocha de Jarama,torremocha-de-jarama,40.8421508,-3.4946603,262,41,57,51,906,NA,NA,510,285,201,319,0.75
28154,525,2380,Torres de la Alameda,torres-de-la-alameda,40.4054714,-3.3615643,2850,548,560,610,7769,22749,18957,2940,2587,1855,2990,0.7794117647058824
28155,22,153,Valdaracete,valdaracete,40.2106498,-3.1949136,66,31,24,50,641,NA,NA,470,250,131,203,0.8562091503267973
28156,40,446,Valdeavero,valdeavero,40.6336227,-3.3351139,270,101,103,114,1407,21825,18365,922,556,406,560,0.9103139013452914
28157,26,206,Valdelaguna,valdelaguna,40.1616853,-3.3678641,92,35,52,70,841,NA,NA,728,319,180,276,0.8737864077669902
28158,42,234,Valdemanco,valdemanco,40.8722993,-3.6629577,154,65,71,43,911,NA,NA,1148,380,192,277,0.8205128205128205
28159,33,171,Valdemaqueda,valdemaqueda,40.5104708,-4.2974563,124,56,47,78,779,NA,NA,988,351,138,249,0.8070175438596491
28160,676,3809,Valdemorillo,valdemorillo,40.4882928,-4.0337846,2527,1024,1039,679,12168,33196,26205,7054,4412,3133,4488,0.8225255972696246
28161,5976,25410,Valdemoro,valdemoro,40.1912403,-3.6740182,20640,3732,3874,4648,72988,25956,21255,27598,24839,19434,30058,0.7648170011806376
28162,156,1260,Valdeolmos-Alalpardo,valdeolmos-alalpardo,40.641084,-3.453025,972,330,292,166,3880,33094,26137,1870,1254,1104,1426,0.8761904761904762
28163,20,168,Valdepiélagos,valdepielagos,40.7608617,-3.4656137,90,48,37,31,574,NA,NA,469,211,148,199,0.8809523809523809
28164,171,1304,Valdetorres de Jarama,valdetorres-de-jarama,40.6955184,-3.5129811,849,338,292,293,4260,25925,21148,2239,1455,1133,1597,0.8688650306748467
28165,181,836,Valdilecha,valdilecha,40.2937839,-3.3023856,652,157,137,233,2749,19868,16876,1626,1023,655,1069,0.7834928229665071
28166,5,131,Valverde de Alcalá,valverde-de-alcala,40.4190426,-3.2989252,47,28,21,24,430,NA,NA,260,175,126,155,0.9618320610687023
28167,684,4540,Velilla de San Antonio,velilla-de-san-antonio,40.3699557,-3.4864498,11608,786,821,754,12222,24905,20345,4372,4127,3856,5294,0.8493392070484581
28168,43,579,"Vellón, El",vellon-el,40.4786715,-3.7341341,179,110,97,138,1846,21441,18062,1480,718,536,717,0.92573402417962
28169,71,504,Venturada,venturada,40.7990504,-3.6224135,404,202,162,81,2014,42127,31899,1332,707,433,585,0.8591269841269841
28170,251,832,Villaconejos,villaconejos,40.1044848,-3.4864498,602,256,189,290,3350,17011,14913,1712,1248,581,1122,0.6983173076923077
28171,492,1835,Villa del Prado,villa-del-prado,40.2774375,-4.3048305,1652,447,291,467,6295,19782,16834,4596,2214,1343,2302,0.7318801089918257
28172,421,4097,Villalbilla,villalbilla,40.4329592,-3.3005573,2598,1079,875,642,12719,30278,24142,5680,3740,3676,4739,0.8972418843055895
28173,26,174,Villamanrique de Tajo,villamanrique-de-tajo,40.068126,-3.2395077,105,45,38,66,705,NA,NA,647,294,148,240,0.8505747126436781
28174,132,619,Villamanta,villamanta,40.2986037,-4.1091663,452,171,151,165,2497,21630,18110,1232,875,487,784,0.7867528271405493
28175,68,409,Villamantilla,villamantilla,40.3418042,-4.1302671,210,100,70,102,1334,25525,20773,737,450,341,511,0.8337408312958435
28176,1200,5890,Villanueva de la Cañada,villanueva-de-la-canada,40.4481075,-3.9975566,6446,1803,1828,691,19611,44705,33691,8385,5718,4690,6581,0.7962648556876061
28177,850,6231,Villanueva del Pardillo,villanueva-del-pardillo,40.4932122,-3.964887,3393,1201,1196,673,16950,35298,27451,5894,5387,5381,6904,0.8635852993099021
28178,51,469,Villanueva de Perales,villanueva-de-perales,40.3453499,-4.1021346,527,118,111,106,1486,24212,20084,714,586,418,575,0.8912579957356077
28179,43,582,Villar del Olmo,villar-del-olmo,40.3361286,-3.2360518,359,231,145,111,1981,28051,22466,1209,747,539,693,0.9261168384879725
28180,797,2174,Villarejo de Salvanés,villarejo-de-salvanes,40.1681485,-3.275967,2215,469,376,561,7265,20270,17190,3740,2615,1377,2735,0.6333946642134315
28181,1372,7892,Villaviciosa de Odón,villaviciosa-de-odon,40.3626807,-3.9139109,10612,2860,3222,945,27276,39624,30563,11751,9166,6520,8837,0.8261530663963508
28182,7,71,Villavieja del Lozoya,villavieja-del-lozoya,41.0063444,-3.6711079,45,24,15,12,270,NA,NA,431,122,64,83,0.9014084507042254
28183,75,370,Zarzalejo,zarzalejo,40.5403425,-4.1596946,359,135,91,121,1565,22586,18815,1622,610,295,491,0.7972972972972973
28901,72,315,Lozoyuela-Navas-Sieteiglesias,lozoyuela-navas-sieteiglesias,40.9124015,-3.6116494,365,88,80,78,1210,21328,17869,1930,489,243,393,0.7714285714285715
28902,17,196,Puentes Viejas,puentes-viejas,40.964983,-3.583199,76,40,29,49,627,NA,NA,900,296,179,245,0.9132653061224489
28903,5043,17292,Tres Cantos,tres-cantos,40.600727,-3.7079745,35323,2333,3206,1670,44764,40004,30556,14458,13306,12249,18962,0.7083622484385843
45019,NA,414,NA,NA,NA,NA,NA,NA,NA,NA,NA,NA,NA,NA,NA,NA,NA,NA
45021,NA,240,NA,NA,NA,NA,NA,NA,NA,NA,NA,NA,NA,NA,NA,NA,NA,NA
45025,NA,131,NA,NA,NA,NA,NA,NA,NA,NA,NA,NA,NA,NA,NA,NA,NA,NA
45031,NA,311,NA,NA,NA,NA,NA,NA,NA,NA,NA,NA,NA,NA,NA,NA,NA,NA
45038,NA,571,NA,NA,NA,NA,NA,NA,NA,NA,NA,NA,NA,NA,NA,NA,NA,NA
45041,NA,574,NA,NA,NA,NA,NA,NA,NA,NA,NA,NA,NA,NA,NA,NA,NA,NA
45047,NA,371,NA,NA,NA,NA,NA,NA,NA,NA,NA,NA,NA,NA,NA,NA,NA,NA
45050,NA,71,NA,NA,NA,NA,NA,NA,NA,NA,NA,NA,NA,NA,NA,NA,NA,NA
45056,NA,331,NA,NA,NA,NA,NA,NA,NA,NA,NA,NA,NA,NA,NA,NA,NA,NA
45064,NA,522,NA,NA,NA,NA,NA,NA,NA,NA,NA,NA,NA,NA,NA,NA,NA,NA
45066,NA,470,NA,NA,NA,NA,NA,NA,NA,NA,NA,NA,NA,NA,NA,NA,NA,NA
45081,NA,2838,NA,NA,NA,NA,NA,NA,NA,NA,NA,NA,NA,NA,NA,NA,NA,NA
45085,NA,134,NA,NA,NA,NA,NA,NA,NA,NA,NA,NA,NA,NA,NA,NA,NA,NA
45088,NA,201,NA,NA,NA,NA,NA,NA,NA,NA,NA,NA,NA,NA,NA,NA,NA,NA
45099,NA,503,NA,NA,NA,NA,NA,NA,NA,NA,NA,NA,NA,NA,NA,NA,NA,NA
45102,NA,119,NA,NA,NA,NA,NA,NA,NA,NA,NA,NA,NA,NA,NA,NA,NA,NA
45119,NA,663,NA,NA,NA,NA,NA,NA,NA,NA,NA,NA,NA,NA,NA,NA,NA,NA
45121,NA,798,NA,NA,NA,NA,NA,NA,NA,NA,NA,NA,NA,NA,NA,NA,NA,NA
45122,NA,353,NA,NA,NA,NA,NA,NA,NA,NA,NA,NA,NA,NA,NA,NA,NA,NA
45123,NA,593,NA,NA,NA,NA,NA,NA,NA,NA,NA,NA,NA,NA,NA,NA,NA,NA
45127,NA,96,NA,NA,NA,NA,NA,NA,NA,NA,NA,NA,NA,NA,NA,NA,NA,NA
45128,NA,283,NA,NA,NA,NA,NA,NA,NA,NA,NA,NA,NA,NA,NA,NA,NA,NA
45134,NA,79,NA,NA,NA,NA,NA,NA,NA,NA,NA,NA,NA,NA,NA,NA,NA,NA
45157,NA,234,NA,NA,NA,NA,NA,NA,NA,NA,NA,NA,NA,NA,NA,NA,NA,NA
45161,NA,3003,NA,NA,NA,NA,NA,NA,NA,NA,NA,NA,NA,NA,NA,NA,NA,NA
45168,NA,3054,NA,NA,NA,NA,NA,NA,NA,NA,NA,NA,NA,NA,NA,NA,NA,NA
45171,NA,132,NA,NA,NA,NA,NA,NA,NA,NA,NA,NA,NA,NA,NA,NA,NA,NA
45176,NA,816,NA,NA,NA,NA,NA,NA,NA,NA,NA,NA,NA,NA,NA,NA,NA,NA
45180,NA,417,NA,NA,NA,NA,NA,NA,NA,NA,NA,NA,NA,NA,NA,NA,NA,NA
45183,NA,360,NA,NA,NA,NA,NA,NA,NA,NA,NA,NA,NA,NA,NA,NA,NA,NA
45188,NA,276,NA,NA,NA,NA,NA,NA,NA,NA,NA,NA,NA,NA,NA,NA,NA,NA
45199,NA,483,NA,NA,NA,NA,NA,NA,NA,NA,NA,NA,NA,NA,NA,NA,NA,NA
45201,NA,577,NA,NA,NA,NA,NA,NA,NA,NA,NA,NA,NA,NA,NA,NA,NA,NA
45203,NA,283,NA,NA,NA,NA,NA,NA,NA,NA,NA,NA,NA,NA,NA,NA,NA,NA
45205,NA,1130,NA,NA,NA,NA,NA,NA,NA,NA,NA,NA,NA,NA,NA,NA,NA,NA
